{
"type": "FeatureCollection",
"name": "hinanjo",
"crs": { "type": "name", "properties": { "name": "urn:ogc:def:crs:OGC:1.3:CRS84" } },
"features": [
{ "type": "Feature", "properties": { "施設名": "三宝小学校", "郵便番号": "590-0906", "都道府県名": "大阪府", "市名": "堺市", "区名": "堺区", "住所": "大阪府堺市堺区三宝町5丁286番地", "電話番号": "072-238-0001", "FAX番号": null, "緯度": 34.59364358, "経度": 135.472424, "ホームページURL": null, "No": 1, "避難所種別（風水害）": "有", "避難所種別（地震）": "有" }, "geometry": { "type": "Point", "coordinates": [ 135.472424, 34.59364358 ] } },
{ "type": "Feature", "properties": { "施設名": "錦西小学校", "郵便番号": "590-0938", "都道府県名": "大阪府", "市名": "堺市", "区名": "堺区", "住所": "大阪府堺市堺区神明町西2丁1番1号", "電話番号": "072-232-1056", "FAX番号": null, "緯度": 34.5849452, "経度": 135.4784813, "ホームページURL": null, "No": 2, "避難所種別（風水害）": "有", "避難所種別（地震）": "有" }, "geometry": { "type": "Point", "coordinates": [ 135.4784813, 34.5849452 ] } },
{ "type": "Feature", "properties": { "施設名": "市小学校", "郵便番号": "590-0951", "都道府県名": "大阪府", "市名": "堺市", "区名": "堺区", "住所": "大阪府堺市堺区市之町西3丁1番14号", "電話番号": "072-223-4610", "FAX番号": null, "緯度": 34.58012028, "経度": 135.4704437, "ホームページURL": null, "No": 3, "避難所種別（風水害）": "有", "避難所種別（地震）": "有" }, "geometry": { "type": "Point", "coordinates": [ 135.4704437, 34.58012028 ] } },
{ "type": "Feature", "properties": { "施設名": "錦綾小学校", "郵便番号": "590-0006", "都道府県名": "大阪府", "市名": "堺市", "区名": "堺区", "住所": "大阪府堺市堺区錦綾町1丁6番19号", "電話番号": "072-228-5183", "FAX番号": null, "緯度": 34.58575739, "経度": 135.485712, "ホームページURL": null, "No": 4, "避難所種別（風水害）": "有", "避難所種別（地震）": "有" }, "geometry": { "type": "Point", "coordinates": [ 135.485712, 34.58575739 ] } },
{ "type": "Feature", "properties": { "施設名": "浅香山小学校", "郵便番号": "590-0018", "都道府県名": "大阪府", "市名": "堺市", "区名": "堺区", "住所": "大阪府堺市堺区今池町5丁4番43号", "電話番号": "072-238-0003", "FAX番号": null, "緯度": 34.58611592, "経度": 135.4945995, "ホームページURL": null, "No": 5, "避難所種別（風水害）": "有", "避難所種別（地震）": "有" }, "geometry": { "type": "Point", "coordinates": [ 135.4945995, 34.58611592 ] } },
{ "type": "Feature", "properties": { "施設名": "錦小学校", "郵便番号": "590-0934", "都道府県名": "大阪府", "市名": "堺市", "区名": "堺区", "住所": "大阪府堺市堺区九間町東3丁1番17号", "電話番号": "072-232-1036", "FAX番号": null, "緯度": 34.58445369, "経度": 135.4828627, "ホームページURL": null, "No": 6, "避難所種別（風水害）": "有", "避難所種別（地震）": "有" }, "geometry": { "type": "Point", "coordinates": [ 135.4828627, 34.58445369 ] } },
{ "type": "Feature", "properties": { "施設名": "熊野小学校", "郵便番号": "590-0946", "都道府県名": "大阪府", "市名": "堺市", "区名": "堺区", "住所": "大阪府堺市堺区熊野町東5丁1番49号", "電話番号": "072-233-3227", "FAX番号": null, "緯度": 34.57603182, "経度": 135.4793786, "ホームページURL": null, "No": 7, "避難所種別（風水害）": "有", "避難所種別（地震）": "有" }, "geometry": { "type": "Point", "coordinates": [ 135.4793786, 34.57603182 ] } },
{ "type": "Feature", "properties": { "施設名": "榎小学校", "郵便番号": "590-0027", "都道府県名": "大阪府", "市名": "堺市", "区名": "堺区", "住所": "大阪府堺市堺区榎元町2丁3番11号", "電話番号": "072-233-2552", "FAX番号": null, "緯度": 34.57021481, "経度": 135.4855827, "ホームページURL": null, "No": 8, "避難所種別（風水害）": "有", "避難所種別（地震）": "有" }, "geometry": { "type": "Point", "coordinates": [ 135.4855827, 34.57021481 ] } },
{ "type": "Feature", "properties": { "施設名": "三国丘小学校", "郵便番号": "590-0021", "都道府県名": "大阪府", "市名": "堺市", "区名": "堺区", "住所": "大阪府堺市堺区北三国ヶ丘町5丁1番1号", "電話番号": "072-232-2818", "FAX番号": null, "緯度": 34.57481091, "経度": 135.4923824, "ホームページURL": null, "No": 9, "避難所種別（風水害）": "有", "避難所種別（地震）": "有" }, "geometry": { "type": "Point", "coordinates": [ 135.4923824, 34.57481091 ] } },
{ "type": "Feature", "properties": { "施設名": "英彰小学校", "郵便番号": "590-0961", "都道府県名": "大阪府", "市名": "堺市", "区名": "堺区", "住所": "大阪府堺市堺区寺地町西4丁1番1号", "電話番号": "072-221-8666", "FAX番号": null, "緯度": 34.57628903, "経度": 135.4654575, "ホームページURL": null, "No": 10, "避難所種別（風水害）": "有", "避難所種別（地震）": "有" }, "geometry": { "type": "Point", "coordinates": [ 135.465457500000014, 34.57628903 ] } },
{ "type": "Feature", "properties": { "施設名": "旧湊小学校", "郵便番号": "590-0829", "都道府県名": "大阪府", "市名": "堺市", "区名": "堺区", "住所": "大阪府堺市堺区東湊町2丁119番地", "電話番号": null, "FAX番号": null, "緯度": 34.56807535, "経度": 135.4663082, "ホームページURL": null, "No": 11, "避難所種別（風水害）": "有", "避難所種別（地震）": "有" }, "geometry": { "type": "Point", "coordinates": [ 135.466308199999986, 34.56807535 ] } },
{ "type": "Feature", "properties": { "施設名": "新湊小学校", "郵便番号": "590-0835", "都道府県名": "大阪府", "市名": "堺市", "区名": "堺区", "住所": "大阪府堺市堺区西湊町6丁6番1号", "電話番号": "072-244-6776", "FAX番号": null, "緯度": 34.56610356, "経度": 135.46098, "ホームページURL": null, "No": 12, "避難所種別（風水害）": "有", "避難所種別（地震）": "有" }, "geometry": { "type": "Point", "coordinates": [ 135.46098, 34.56610356 ] } },
{ "type": "Feature", "properties": { "施設名": "少林寺小学校", "郵便番号": "590-0963", "都道府県名": "大阪府", "市名": "堺市", "区名": "堺区", "住所": "大阪府堺市堺区少林寺町東4丁1番1号", "電話番号": "072-232-1126", "FAX番号": null, "緯度": 34.57106945, "経度": 135.4720144, "ホームページURL": null, "No": 13, "避難所種別（風水害）": "有", "避難所種別（地震）": "有" }, "geometry": { "type": "Point", "coordinates": [ 135.4720144, 34.57106945 ] } },
{ "type": "Feature", "properties": { "施設名": "安井小学校", "郵便番号": "590-0064", "都道府県名": "大阪府", "市名": "堺市", "区名": "堺区", "住所": "大阪府堺市堺区南安井町4丁1番5号", "電話番号": "072-238-5341", "FAX番号": null, "緯度": 34.57062702, "経度": 135.4779388, "ホームページURL": null, "No": 14, "避難所種別（風水害）": "有", "避難所種別（地震）": "有" }, "geometry": { "type": "Point", "coordinates": [ 135.4779388, 34.57062702 ] } },
{ "type": "Feature", "properties": { "施設名": "大仙西小学校", "郵便番号": "590-0821", "都道府県名": "大阪府", "市名": "堺市", "区名": "堺区", "住所": "大阪府堺市堺区大仙西町4丁129番地", "電話番号": "072-241-2977", "FAX番号": null, "緯度": 34.56436868, "経度": 135.4722029, "ホームページURL": null, "No": 15, "避難所種別（風水害）": "有", "避難所種別（地震）": "有" }, "geometry": { "type": "Point", "coordinates": [ 135.472202900000013, 34.56436868 ] } },
{ "type": "Feature", "properties": { "施設名": "神石小学校", "郵便番号": "590-0814", "都道府県名": "大阪府", "市名": "堺市", "区名": "堺区", "住所": "大阪府堺市堺区石津町2丁6番1号", "電話番号": "072-241-2151", "FAX番号": null, "緯度": 34.55463956, "経度": 135.4666616, "ホームページURL": null, "No": 16, "避難所種別（風水害）": "有", "避難所種別（地震）": "有" }, "geometry": { "type": "Point", "coordinates": [ 135.4666616, 34.55463956 ] } },
{ "type": "Feature", "properties": { "施設名": "大仙小学校", "郵便番号": "590-0801", "都道府県名": "大阪府", "市名": "堺市", "区名": "堺区", "住所": "大阪府堺市堺区大仙中町16番1号", "電話番号": "072-241-0888", "FAX番号": null, "緯度": 34.5605928, "経度": 135.4787391, "ホームページURL": null, "No": 17, "避難所種別（風水害）": "有", "避難所種別（地震）": "有" }, "geometry": { "type": "Point", "coordinates": [ 135.478739100000013, 34.5605928 ] } },
{ "type": "Feature", "properties": { "施設名": "浜寺石津小学校", "郵便番号": "592-8334", "都道府県名": "大阪府", "市名": "堺市", "区名": "西区", "住所": "大阪府堺市西区浜寺石津町中2丁3番28号", "電話番号": "072-241-6505", "FAX番号": null, "緯度": 34.55975017, "経度": 135.4550631, "ホームページURL": null, "No": 18, "避難所種別（風水害）": "有", "避難所種別（地震）": "有" }, "geometry": { "type": "Point", "coordinates": [ 135.4550631, 34.55975017 ] } },
{ "type": "Feature", "properties": { "施設名": "浜寺東小学校", "郵便番号": "592-8341", "都道府県名": "大阪府", "市名": "堺市", "区名": "西区", "住所": "大阪府堺市西区浜寺船尾町東1丁101番地", "電話番号": "072-265-1141", "FAX番号": null, "緯度": 34.55130459, "経度": 135.4581056, "ホームページURL": null, "No": 19, "避難所種別（風水害）": "有", "避難所種別（地震）": "有" }, "geometry": { "type": "Point", "coordinates": [ 135.45810560000001, 34.55130459 ] } },
{ "type": "Feature", "properties": { "施設名": "浜寺小学校", "郵便番号": "592-8349", "都道府県名": "大阪府", "市名": "堺市", "区名": "西区", "住所": "大阪府堺市西区浜寺諏訪森町東2丁163番地", "電話番号": "072-261-9407", "FAX番号": null, "緯度": 34.54945599, "経度": 135.4516509, "ホームページURL": null, "No": 20, "避難所種別（風水害）": "有", "避難所種別（地震）": "有" }, "geometry": { "type": "Point", "coordinates": [ 135.4516509, 34.54945599 ] } },
{ "type": "Feature", "properties": { "施設名": "浜寺昭和小学校", "郵便番号": "592-8345", "都道府県名": "大阪府", "市名": "堺市", "区名": "西区", "住所": "大阪府堺市西区浜寺昭和町2丁282番地", "電話番号": "072-261-0677", "FAX番号": null, "緯度": 34.54239861, "経度": 135.4487313, "ホームページURL": null, "No": 21, "避難所種別（風水害）": "有", "避難所種別（地震）": "有" }, "geometry": { "type": "Point", "coordinates": [ 135.4487313, 34.54239861 ] } },
{ "type": "Feature", "properties": { "施設名": "津久野小学校", "郵便番号": "593-8322", "都道府県名": "大阪府", "市名": "堺市", "区名": "西区", "住所": "大阪府堺市西区津久野町3丁14番11号", "電話番号": "072-262-0303", "FAX番号": null, "緯度": 34.54504026, "経度": 135.4708139, "ホームページURL": null, "No": 22, "避難所種別（風水害）": "有", "避難所種別（地震）": "有" }, "geometry": { "type": "Point", "coordinates": [ 135.4708139, 34.54504026 ] } },
{ "type": "Feature", "properties": { "施設名": "上野芝小学校", "郵便番号": "593-8308", "都道府県名": "大阪府", "市名": "堺市", "区名": "西区", "住所": "大阪府堺市西区神野町2丁25番1号", "電話番号": "072-271-4123", "FAX番号": null, "緯度": 34.54467499, "経度": 135.4757749, "ホームページURL": null, "No": 23, "避難所種別（風水害）": "有", "避難所種別（地震）": "有" }, "geometry": { "type": "Point", "coordinates": [ 135.4757749, 34.54467499 ] } },
{ "type": "Feature", "properties": { "施設名": "家原寺小学校", "郵便番号": "593-8304", "都道府県名": "大阪府", "市名": "堺市", "区名": "西区", "住所": "大阪府堺市西区家原寺町1丁7番1号", "電話番号": "072-274-3401", "FAX番号": null, "緯度": 34.53736431, "経度": 135.4760489, "ホームページURL": null, "No": 24, "避難所種別（風水害）": "有", "避難所種別（地震）": "有" }, "geometry": { "type": "Point", "coordinates": [ 135.4760489, 34.53736431 ] } },
{ "type": "Feature", "properties": { "施設名": "鳳小学校", "郵便番号": "593-8327", "都道府県名": "大阪府", "市名": "堺市", "区名": "西区", "住所": "大阪府堺市西区鳳中町2丁22番地", "電話番号": "072-262-0124", "FAX番号": null, "緯度": 34.53411874, "経度": 135.4587199, "ホームページURL": null, "No": 25, "避難所種別（風水害）": "有", "避難所種別（地震）": "有" }, "geometry": { "type": "Point", "coordinates": [ 135.4587199, 34.53411874 ] } },
{ "type": "Feature", "properties": { "施設名": "鳳南小学校", "郵便番号": "593-8325", "都道府県名": "大阪府", "市名": "堺市", "区名": "西区", "住所": "大阪府堺市西区鳳南町1丁7番地", "電話番号": "072-272-1200", "FAX番号": null, "緯度": 34.52823932, "経度": 135.4576333, "ホームページURL": null, "No": 26, "避難所種別（風水害）": "有", "避難所種別（地震）": "有" }, "geometry": { "type": "Point", "coordinates": [ 135.4576333, 34.52823932 ] } },
{ "type": "Feature", "properties": { "施設名": "向丘小学校", "郵便番号": "593-8303", "都道府県名": "大阪府", "市名": "堺市", "区名": "西区", "住所": "大阪府堺市西区上野芝向ヶ丘町6丁7番1号", "電話番号": "072-278-0340", "FAX番号": null, "緯度": 34.53950784, "経度": 135.4781027, "ホームページURL": null, "No": 27, "避難所種別（風水害）": "有", "避難所種別（地震）": "有" }, "geometry": { "type": "Point", "coordinates": [ 135.4781027, 34.53950784 ] } },
{ "type": "Feature", "properties": { "施設名": "平岡小学校", "郵便番号": "593-8305", "都道府県名": "大阪府", "市名": "堺市", "区名": "西区", "住所": "大阪府堺市西区堀上緑町1丁6番1号", "電話番号": "072-271-5044", "FAX番号": null, "緯度": 34.53459475, "経度": 135.4770369, "ホームページURL": null, "No": 28, "避難所種別（風水害）": "有", "避難所種別（地震）": "有" }, "geometry": { "type": "Point", "coordinates": [ 135.4770369, 34.53459475 ] } },
{ "type": "Feature", "properties": { "施設名": "福泉上小学校", "郵便番号": "593-8311", "都道府県名": "大阪府", "市名": "堺市", "区名": "西区", "住所": "大阪府堺市西区上127番地の1", "電話番号": "072-274-4611", "FAX番号": null, "緯度": 34.52578549, "経度": 135.468357, "ホームページURL": null, "No": 29, "避難所種別（風水害）": "有", "避難所種別（地震）": "有" }, "geometry": { "type": "Point", "coordinates": [ 135.468357, 34.52578549 ] } },
{ "type": "Feature", "properties": { "施設名": "福泉小学校", "郵便番号": "593-8315", "都道府県名": "大阪府", "市名": "堺市", "区名": "西区", "住所": "大阪府堺市西区菱木2丁2186番地の1", "電話番号": "072-273-1861", "FAX番号": null, "緯度": 34.5144316, "経度": 135.470755, "ホームページURL": null, "No": 30, "避難所種別（風水害）": "有", "避難所種別（地震）": "有" }, "geometry": { "type": "Point", "coordinates": [ 135.470755, 34.5144316 ] } },
{ "type": "Feature", "properties": { "施設名": "福泉東小学校", "郵便番号": "593-8312", "都道府県名": "大阪府", "市名": "堺市", "区名": "西区", "住所": "大阪府堺市西区草部946番地の1", "電話番号": "072-274-9311", "FAX番号": null, "緯度": 34.51922131, "経度": 135.4731655, "ホームページURL": null, "No": 31, "避難所種別（風水害）": "有", "避難所種別（地震）": "有" }, "geometry": { "type": "Point", "coordinates": [ 135.4731655, 34.51922131 ] } },
{ "type": "Feature", "properties": { "施設名": "八田荘小学校", "郵便番号": "599-8267", "都道府県名": "大阪府", "市名": "堺市", "区名": "中区", "住所": "大阪府堺市中区八田寺町231番地", "電話番号": "072-271-0335", "FAX番号": null, "緯度": 34.52711658, "経度": 135.4802131, "ホームページURL": null, "No": 32, "避難所種別（風水害）": "有", "避難所種別（地震）": "有" }, "geometry": { "type": "Point", "coordinates": [ 135.480213099999986, 34.52711658 ] } },
{ "type": "Feature", "properties": { "施設名": "深井小学校", "郵便番号": "599-8272", "都道府県名": "大阪府", "市名": "堺市", "区名": "中区", "住所": "大阪府堺市中区深井中町1409番地", "電話番号": "072-278-0108", "FAX番号": null, "緯度": 34.53526144, "経度": 135.4917621, "ホームページURL": null, "No": 33, "避難所種別（風水害）": "有", "避難所種別（地震）": "有" }, "geometry": { "type": "Point", "coordinates": [ 135.491762099999988, 34.53526144 ] } },
{ "type": "Feature", "properties": { "施設名": "東百舌鳥小学校", "郵便番号": "599-8234", "都道府県名": "大阪府", "市名": "堺市", "区名": "中区", "住所": "大阪府堺市中区土塔町139番地", "電話番号": "072-236-0288", "FAX番号": null, "緯度": 34.53828222, "経度": 135.5082165, "ホームページURL": null, "No": 34, "避難所種別（風水害）": "有", "避難所種別（地震）": "有" }, "geometry": { "type": "Point", "coordinates": [ 135.5082165, 34.53828222 ] } },
{ "type": "Feature", "properties": { "施設名": "久世小学校", "郵便番号": "599-8251", "都道府県名": "大阪府", "市名": "堺市", "区名": "中区", "住所": "大阪府堺市中区平井999番地", "電話番号": "072-278-0324", "FAX番号": null, "緯度": 34.52059954, "経度": 135.4955448, "ホームページURL": null, "No": 35, "避難所種別（風水害）": "有", "避難所種別（地震）": "有" }, "geometry": { "type": "Point", "coordinates": [ 135.4955448, 34.52059954 ] } },
{ "type": "Feature", "properties": { "施設名": "東陶器小学校", "郵便番号": "599-8242", "都道府県名": "大阪府", "市名": "堺市", "区名": "中区", "住所": "大阪府堺市中区陶器北2556番地", "電話番号": "072-236-0036", "FAX番号": null, "緯度": 34.51850583, "経度": 135.5221004, "ホームページURL": null, "No": 36, "避難所種別（風水害）": "有", "避難所種別（地震）": "有" }, "geometry": { "type": "Point", "coordinates": [ 135.5221004, 34.51850583 ] } },
{ "type": "Feature", "properties": { "施設名": "西陶器小学校", "郵便番号": "599-8246", "都道府県名": "大阪府", "市名": "堺市", "区名": "中区", "住所": "大阪府堺市中区田園570番地", "電話番号": "072-236-0035", "FAX番号": null, "緯度": 34.51034335, "経度": 135.5119751, "ホームページURL": null, "No": 37, "避難所種別（風水害）": "有", "避難所種別（地震）": "有" }, "geometry": { "type": "Point", "coordinates": [ 135.5119751, 34.51034335 ] } },
{ "type": "Feature", "properties": { "施設名": "宮園小学校", "郵便番号": "599-8274", "都道府県名": "大阪府", "市名": "堺市", "区名": "中区", "住所": "大阪府堺市中区宮園町4番1号", "電話番号": "072-278-0981", "FAX番号": null, "緯度": 34.52574356, "経度": 135.4946664, "ホームページURL": null, "No": 38, "避難所種別（風水害）": "有", "避難所種別（地震）": "有" }, "geometry": { "type": "Point", "coordinates": [ 135.4946664, 34.52574356 ] } },
{ "type": "Feature", "properties": { "施設名": "福田小学校", "郵便番号": "599-8241", "都道府県名": "大阪府", "市名": "堺市", "区名": "中区", "住所": "大阪府堺市中区福田727番地", "電話番号": "072-235-9286", "FAX番号": null, "緯度": 34.52472842, "経度": 135.5185725, "ホームページURL": null, "No": 39, "避難所種別（風水害）": "有", "避難所種別（地震）": "有" }, "geometry": { "type": "Point", "coordinates": [ 135.5185725, 34.52472842 ] } },
{ "type": "Feature", "properties": { "施設名": "八田荘西小学校", "郵便番号": "599-8266", "都道府県名": "大阪府", "市名": "堺市", "区名": "中区", "住所": "大阪府堺市中区毛穴町268番地の2", "電話番号": "072-270-0048", "FAX番号": null, "緯度": 34.52713073, "経度": 135.4758038, "ホームページURL": null, "No": 40, "避難所種別（風水害）": "有", "避難所種別（地震）": "有" }, "geometry": { "type": "Point", "coordinates": [ 135.4758038, 34.52713073 ] } },
{ "type": "Feature", "properties": { "施設名": "東深井小学校", "郵便番号": "599-8237", "都道府県名": "大阪府", "市名": "堺市", "区名": "中区", "住所": "大阪府堺市中区深井水池町3214番地", "電話番号": "072-278-2791", "FAX番号": null, "緯度": 34.53095968, "経度": 135.5010199, "ホームページURL": null, "No": 41, "避難所種別（風水害）": "有", "避難所種別（地震）": "有" }, "geometry": { "type": "Point", "coordinates": [ 135.501019899999989, 34.53095968 ] } },
{ "type": "Feature", "properties": { "施設名": "土師小学校", "郵便番号": "599-8238", "都道府県名": "大阪府", "市名": "堺市", "区名": "中区", "住所": "大阪府堺市中区土師町3丁35番1号", "電話番号": "072-277-9020", "FAX番号": null, "緯度": 34.53848224, "経度": 135.499744, "ホームページURL": null, "No": 42, "避難所種別（風水害）": "有", "避難所種別（地震）": "有" }, "geometry": { "type": "Point", "coordinates": [ 135.499744, 34.53848224 ] } },
{ "type": "Feature", "properties": { "施設名": "深井西小学校", "郵便番号": "599-8271", "都道府県名": "大阪府", "市名": "堺市", "区名": "中区", "住所": "大阪府堺市中区深井北町926番地", "電話番号": "072-278-6301", "FAX番号": null, "緯度": 34.53912787, "経度": 135.4837469, "ホームページURL": null, "No": 43, "避難所種別（風水害）": "有", "避難所種別（地震）": "有" }, "geometry": { "type": "Point", "coordinates": [ 135.4837469, 34.53912787 ] } },
{ "type": "Feature", "properties": { "施設名": "深阪小学校", "郵便番号": "599-8253", "都道府県名": "大阪府", "市名": "堺市", "区名": "中区", "住所": "大阪府堺市中区深阪11番地", "電話番号": "072-237-3210", "FAX番号": null, "緯度": 34.50909052, "経度": 135.5081857, "ホームページURL": null, "No": 44, "避難所種別（風水害）": "有", "避難所種別（地震）": "有" }, "geometry": { "type": "Point", "coordinates": [ 135.508185700000013, 34.50909052 ] } },
{ "type": "Feature", "properties": { "施設名": "東三国丘小学校", "郵便番号": "591-8046", "都道府県名": "大阪府", "市名": "堺市", "区名": "北区", "住所": "大阪府堺市北区東三国ヶ丘町2丁2番1号", "電話番号": "072-252-0263", "FAX番号": null, "緯度": 34.57064096, "経度": 135.4978513, "ホームページURL": null, "No": 45, "避難所種別（風水害）": "有", "避難所種別（地震）": "有" }, "geometry": { "type": "Point", "coordinates": [ 135.4978513, 34.57064096 ] } },
{ "type": "Feature", "properties": { "施設名": "東浅香山小学校", "郵便番号": "591-8042", "都道府県名": "大阪府", "市名": "堺市", "区名": "北区", "住所": "大阪府堺市北区大豆塚町1丁60番地", "電話番号": "072-252-1081", "FAX番号": null, "緯度": 34.58015247, "経度": 135.5045738, "ホームページURL": null, "No": 46, "避難所種別（風水害）": "有", "避難所種別（地震）": "有" }, "geometry": { "type": "Point", "coordinates": [ 135.5045738, 34.58015247 ] } },
{ "type": "Feature", "properties": { "施設名": "五箇荘小学校", "郵便番号": "591-8005", "都道府県名": "大阪府", "市名": "堺市", "区名": "北区", "住所": "大阪府堺市北区新堀町2丁58番地", "電話番号": "072-252-1418", "FAX番号": null, "緯度": 34.57724267, "経度": 135.5140737, "ホームページURL": null, "No": 47, "避難所種別（風水害）": "有", "避難所種別（地震）": "有" }, "geometry": { "type": "Point", "coordinates": [ 135.514073700000012, 34.57724267 ] } },
{ "type": "Feature", "properties": { "施設名": "金岡小学校", "郵便番号": "591-8022", "都道府県名": "大阪府", "市名": "堺市", "区名": "北区", "住所": "大阪府堺市北区金岡町1254番地", "電話番号": "072-252-0028", "FAX番号": null, "緯度": 34.55869368, "経度": 135.515184, "ホームページURL": null, "No": 48, "避難所種別（風水害）": "有", "避難所種別（地震）": "有" }, "geometry": { "type": "Point", "coordinates": [ 135.515184, 34.55869368 ] } },
{ "type": "Feature", "properties": { "施設名": "北八下小学校", "郵便番号": "591-8012", "都道府県名": "大阪府", "市名": "堺市", "区名": "北区", "住所": "大阪府堺市北区中村町250番地", "電話番号": "072-252-0212", "FAX番号": null, "緯度": 34.56515116, "経度": 135.5367354, "ホームページURL": null, "No": 49, "避難所種別（風水害）": "有", "避難所種別（地震）": "有" }, "geometry": { "type": "Point", "coordinates": [ 135.5367354, 34.56515116 ] } },
{ "type": "Feature", "properties": { "施設名": "百舌鳥小学校", "郵便番号": "591-8032", "都道府県名": "大阪府", "市名": "堺市", "区名": "北区", "住所": "大阪府堺市北区百舌鳥梅町2丁498番地", "電話番号": "072-252-0477", "FAX番号": null, "緯度": 34.55084447, "経度": 135.4959109, "ホームページURL": null, "No": 50, "避難所種別（風水害）": "有", "避難所種別（地震）": "有" }, "geometry": { "type": "Point", "coordinates": [ 135.495910900000013, 34.55084447 ] } },
{ "type": "Feature", "properties": { "施設名": "新金岡小学校", "郵便番号": "591-8021", "都道府県名": "大阪府", "市名": "堺市", "区名": "北区", "住所": "大阪府堺市北区新金岡町1丁4番1号", "電話番号": "072-252-1723", "FAX番号": null, "緯度": 34.56963085, "経度": 135.5110772, "ホームページURL": null, "No": 51, "避難所種別（風水害）": "有", "避難所種別（地震）": "有" }, "geometry": { "type": "Point", "coordinates": [ 135.511077199999988, 34.56963085 ] } },
{ "type": "Feature", "properties": { "施設名": "光竜寺小学校", "郵便番号": "591-8021", "都道府県名": "大阪府", "市名": "堺市", "区名": "北区", "住所": "大阪府堺市北区新金岡町3丁7番1号", "電話番号": "072-251-2032", "FAX番号": null, "緯度": 34.57235017, "経度": 135.5216223, "ホームページURL": null, "No": 52, "避難所種別（風水害）": "有", "避難所種別（地震）": "有" }, "geometry": { "type": "Point", "coordinates": [ 135.5216223, 34.57235017 ] } },
{ "type": "Feature", "properties": { "施設名": "大泉学園（大泉小学校・大泉中学校）", "郵便番号": "591-8021", "都道府県名": "大阪府", "市名": "堺市", "区名": "北区", "住所": "大阪府堺市北区新金岡町4丁9番1号", "電話番号": "072-251-2816", "FAX番号": null, "緯度": 34.56739874, "経度": 135.5226853, "ホームページURL": null, "No": 53, "避難所種別（風水害）": "有", "避難所種別（地震）": "有" }, "geometry": { "type": "Point", "coordinates": [ 135.5226853, 34.56739874 ] } },
{ "type": "Feature", "properties": { "施設名": "中百舌鳥小学校", "郵便番号": "591-8023", "都道府県名": "大阪府", "市名": "堺市", "区名": "北区", "住所": "大阪府堺市北区中百舌鳥町6丁1033番地の2", "電話番号": "072-258-2650", "FAX番号": null, "緯度": 34.55020558, "経度": 135.5072466, "ホームページURL": null, "No": 54, "避難所種別（風水害）": "有", "避難所種別（地震）": "有" }, "geometry": { "type": "Point", "coordinates": [ 135.5072466, 34.55020558 ] } },
{ "type": "Feature", "properties": { "施設名": "五箇荘東小学校", "郵便番号": "591-8002", "都道府県名": "大阪府", "市名": "堺市", "区名": "北区", "住所": "大阪府堺市北区北花田町2丁203番地", "電話番号": "072-255-7911", "FAX番号": null, "緯度": 34.58093389, "経度": 135.519633, "ホームページURL": null, "No": 55, "避難所種別（風水害）": "有", "避難所種別（地震）": "有" }, "geometry": { "type": "Point", "coordinates": [ 135.519633, 34.58093389 ] } },
{ "type": "Feature", "properties": { "施設名": "西百舌鳥小学校", "郵便番号": "591-8033", "都道府県名": "大阪府", "市名": "堺市", "区名": "北区", "住所": "大阪府堺市北区百舌鳥西之町1丁82番地", "電話番号": "072-258-0231", "FAX番号": null, "緯度": 34.55037228, "経度": 135.4900222, "ホームページURL": null, "No": 56, "避難所種別（風水害）": "有", "避難所種別（地震）": "有" }, "geometry": { "type": "Point", "coordinates": [ 135.4900222, 34.55037228 ] } },
{ "type": "Feature", "properties": { "施設名": "金岡南小学校", "郵便番号": "591-8022", "都道府県名": "大阪府", "市名": "堺市", "区名": "北区", "住所": "大阪府堺市北区金岡町1182番地の1", "電話番号": "072-258-3104", "FAX番号": null, "緯度": 34.55555235, "経度": 135.5119115, "ホームページURL": null, "No": 57, "避難所種別（風水害）": "有", "避難所種別（地震）": "有" }, "geometry": { "type": "Point", "coordinates": [ 135.5119115, 34.55555235 ] } },
{ "type": "Feature", "properties": { "施設名": "新金岡東小学校", "郵便番号": "591-8021", "都道府県名": "大阪府", "市名": "堺市", "区名": "北区", "住所": "大阪府堺市北区新金岡町4丁1番9号", "電話番号": "072-255-8414", "FAX番号": null, "緯度": 34.5681785, "経度": 135.5158543, "ホームページURL": null, "No": 58, "避難所種別（風水害）": "有", "避難所種別（地震）": "有" }, "geometry": { "type": "Point", "coordinates": [ 135.5158543, 34.5681785 ] } },
{ "type": "Feature", "properties": { "施設名": "新浅香山小学校", "郵便番号": "591-8008", "都道府県名": "大阪府", "市名": "堺市", "区名": "北区", "住所": "大阪府堺市北区東浅香山町3丁31番4号", "電話番号": "072-254-5081", "FAX番号": null, "緯度": 34.58571328, "経度": 135.5086262, "ホームページURL": null, "No": 59, "避難所種別（風水害）": "有", "避難所種別（地震）": "有" }, "geometry": { "type": "Point", "coordinates": [ 135.5086262, 34.58571328 ] } },
{ "type": "Feature", "properties": { "施設名": "南八下小学校", "郵便番号": "599-8103", "都道府県名": "大阪府", "市名": "堺市", "区名": "東区", "住所": "大阪府堺市東区菩提町5丁228番地", "電話番号": "072-285-0614", "FAX番号": null, "緯度": 34.54701745, "経度": 135.5380671, "ホームページURL": null, "No": 60, "避難所種別（風水害）": "有", "避難所種別（地震）": "有" }, "geometry": { "type": "Point", "coordinates": [ 135.5380671, 34.54701745 ] } },
{ "type": "Feature", "properties": { "施設名": "八下西小学校", "郵便番号": "599-8104", "都道府県名": "大阪府", "市名": "堺市", "区名": "東区", "住所": "大阪府堺市東区引野町1丁110番地", "電話番号": "072-286-1611", "FAX番号": null, "緯度": 34.55066357, "経度": 135.5226835, "ホームページURL": null, "No": 61, "避難所種別（風水害）": "有", "避難所種別（地震）": "有" }, "geometry": { "type": "Point", "coordinates": [ 135.5226835, 34.55066357 ] } },
{ "type": "Feature", "properties": { "施設名": "日置荘小学校", "郵便番号": "599-8114", "都道府県名": "大阪府", "市名": "堺市", "区名": "東区", "住所": "大阪府堺市東区日置荘西町2丁46番1号", "電話番号": "072-285-0260", "FAX番号": null, "緯度": 34.54133192, "経度": 135.5341437, "ホームページURL": null, "No": 62, "避難所種別（風水害）": "有", "避難所種別（地震）": "有" }, "geometry": { "type": "Point", "coordinates": [ 135.534143699999987, 34.54133192 ] } },
{ "type": "Feature", "properties": { "施設名": "日置荘西小学校", "郵便番号": "599-8114", "都道府県名": "大阪府", "市名": "堺市", "区名": "東区", "住所": "大阪府堺市東区日置荘西町6丁9番1号", "電話番号": "072-285-5238", "FAX番号": null, "緯度": 34.53839427, "経度": 135.5251286, "ホームページURL": null, "No": 63, "避難所種別（風水害）": "有", "避難所種別（地震）": "有" }, "geometry": { "type": "Point", "coordinates": [ 135.525128599999988, 34.53839427 ] } },
{ "type": "Feature", "properties": { "施設名": "白鷺小学校", "郵便番号": "599-8107", "都道府県名": "大阪府", "市名": "堺市", "区名": "東区", "住所": "大阪府堺市東区白鷺町2丁8番1号", "電話番号": "072-285-8585", "FAX番号": null, "緯度": 34.54484709, "経度": 135.515406, "ホームページURL": null, "No": 64, "避難所種別（風水害）": "有", "避難所種別（地震）": "有" }, "geometry": { "type": "Point", "coordinates": [ 135.515406, 34.54484709 ] } },
{ "type": "Feature", "properties": { "施設名": "登美丘東小学校", "郵便番号": "599-8122", "都道府県名": "大阪府", "市名": "堺市", "区名": "東区", "住所": "大阪府堺市東区丈六224番地", "電話番号": "072-236-2130", "FAX番号": null, "緯度": 34.52681243, "経度": 135.5400087, "ホームページURL": null, "No": 65, "避難所種別（風水害）": "有", "避難所種別（地震）": "有" }, "geometry": { "type": "Point", "coordinates": [ 135.540008699999987, 34.52681243 ] } },
{ "type": "Feature", "properties": { "施設名": "登美丘西小学校", "郵便番号": "599-8126", "都道府県名": "大阪府", "市名": "堺市", "区名": "東区", "住所": "大阪府堺市東区大美野135番地", "電話番号": "072-236-0031", "FAX番号": null, "緯度": 34.52680573, "経度": 135.528789, "ホームページURL": null, "No": 66, "避難所種別（風水害）": "有", "避難所種別（地震）": "有" }, "geometry": { "type": "Point", "coordinates": [ 135.528789, 34.52680573 ] } },
{ "type": "Feature", "properties": { "施設名": "登美丘南小学校", "郵便番号": "599-8127", "都道府県名": "大阪府", "市名": "堺市", "区名": "東区", "住所": "大阪府堺市東区草尾596番地", "電話番号": "072-236-6051", "FAX番号": null, "緯度": 34.51785578, "経度": 135.5364528, "ホームページURL": null, "No": 67, "避難所種別（風水害）": "有", "避難所種別（地震）": "有" }, "geometry": { "type": "Point", "coordinates": [ 135.5364528, 34.51785578 ] } },
{ "type": "Feature", "properties": { "施設名": "野田小学校", "郵便番号": "599-8123", "都道府県名": "大阪府", "市名": "堺市", "区名": "東区", "住所": "大阪府堺市東区北野田897番地の2", "電話番号": "072-236-0065", "FAX番号": null, "緯度": 34.52376154, "経度": 135.551125, "ホームページURL": null, "No": 68, "避難所種別（風水害）": "有", "避難所種別（地震）": "有" }, "geometry": { "type": "Point", "coordinates": [ 135.551125, 34.52376154 ] } },
{ "type": "Feature", "properties": { "施設名": "上神谷小学校", "郵便番号": "590-0121", "都道府県名": "大阪府", "市名": "堺市", "区名": "南区", "住所": "大阪府堺市南区片蔵1425番地", "電話番号": "072-297-0028", "FAX番号": null, "緯度": 34.48006784, "経度": 135.5121338, "ホームページURL": null, "No": 69, "避難所種別（風水害）": "有", "避難所種別（地震）": "有" }, "geometry": { "type": "Point", "coordinates": [ 135.512133799999987, 34.48006784 ] } },
{ "type": "Feature", "properties": { "施設名": "福泉中央小学校", "郵便番号": "590-0141", "都道府県名": "大阪府", "市名": "堺市", "区名": "南区", "住所": "大阪府堺市南区桃山台4丁17番1号", "電話番号": "072-298-3045", "FAX番号": null, "緯度": 34.49649512, "経度": 135.4839119, "ホームページURL": null, "No": 70, "避難所種別（風水害）": "有", "避難所種別（地震）": "有" }, "geometry": { "type": "Point", "coordinates": [ 135.48391190000001, 34.49649512 ] } },
{ "type": "Feature", "properties": { "施設名": "美木多小学校", "郵便番号": "590-0138", "都道府県名": "大阪府", "市名": "堺市", "区名": "南区", "住所": "大阪府堺市南区鴨谷台1丁48番1号", "電話番号": "072-297-0821", "FAX番号": null, "緯度": 34.47448146, "経度": 135.4843523, "ホームページURL": null, "No": 71, "避難所種別（風水害）": "有", "避難所種別（地震）": "有" }, "geometry": { "type": "Point", "coordinates": [ 135.484352300000012, 34.47448146 ] } },
{ "type": "Feature", "properties": { "施設名": "宮山台小学校", "郵便番号": "590-0101", "都道府県名": "大阪府", "市名": "堺市", "区名": "南区", "住所": "大阪府堺市南区宮山台2丁2番1号", "電話番号": "072-297-0515", "FAX番号": null, "緯度": 34.50419469, "経度": 135.4991866, "ホームページURL": null, "No": 72, "避難所種別（風水害）": "有", "避難所種別（地震）": "有" }, "geometry": { "type": "Point", "coordinates": [ 135.4991866, 34.50419469 ] } },
{ "type": "Feature", "properties": { "施設名": "竹城台小学校", "郵便番号": "590-0105", "都道府県名": "大阪府", "市名": "堺市", "区名": "南区", "住所": "大阪府堺市南区竹城台3丁2番1号", "電話番号": "072-297-0777", "FAX番号": null, "緯度": 34.49630636, "経度": 135.5036329, "ホームページURL": null, "No": 73, "避難所種別（風水害）": "有", "避難所種別（地震）": "有" }, "geometry": { "type": "Point", "coordinates": [ 135.503632900000014, 34.49630636 ] } },
{ "type": "Feature", "properties": { "施設名": "若松台小学校", "郵便番号": "590-0116", "都道府県名": "大阪府", "市名": "堺市", "区名": "南区", "住所": "大阪府堺市南区若松台1丁3番1号", "電話番号": "072-292-0001", "FAX番号": null, "緯度": 34.49150454, "経度": 135.5066883, "ホームページURL": null, "No": 74, "避難所種別（風水害）": "有", "避難所種別（地震）": "有" }, "geometry": { "type": "Point", "coordinates": [ 135.5066883, 34.49150454 ] } },
{ "type": "Feature", "properties": { "施設名": "三原台小学校", "郵便番号": "590-0111", "都道府県名": "大阪府", "市名": "堺市", "区名": "南区", "住所": "大阪府堺市南区三原台3丁2番1号", "電話番号": "072-291-0394", "FAX番号": null, "緯度": 34.50152198, "経度": 135.5206226, "ホームページURL": null, "No": 75, "避難所種別（風水害）": "有", "避難所種別（地震）": "有" }, "geometry": { "type": "Point", "coordinates": [ 135.5206226, 34.50152198 ] } },
{ "type": "Feature", "properties": { "施設名": "茶山台小学校", "郵便番号": "590-0115", "都道府県名": "大阪府", "市名": "堺市", "区名": "南区", "住所": "大阪府堺市南区茶山台2丁5番1号", "電話番号": "072-291-1104", "FAX番号": null, "緯度": 34.49089727, "経度": 135.5171664, "ホームページURL": null, "No": 76, "避難所種別（風水害）": "有", "避難所種別（地震）": "有" }, "geometry": { "type": "Point", "coordinates": [ 135.5171664, 34.49089727 ] } },
{ "type": "Feature", "properties": { "施設名": "槇塚台小学校", "郵便番号": "590-0114", "都道府県名": "大阪府", "市名": "堺市", "区名": "南区", "住所": "大阪府堺市南区槇塚台3丁39番1号", "電話番号": "072-291-6000", "FAX番号": null, "緯度": 34.48268881, "経度": 135.5275566, "ホームページURL": null, "No": 77, "避難所種別（風水害）": "有", "避難所種別（地震）": "有" }, "geometry": { "type": "Point", "coordinates": [ 135.5275566, 34.48268881 ] } },
{ "type": "Feature", "properties": { "施設名": "桃山台小学校", "郵便番号": "590-0141", "都道府県名": "大阪府", "市名": "堺市", "区名": "南区", "住所": "大阪府堺市南区桃山台2丁6番1号", "電話番号": "072-299-0038", "FAX番号": null, "緯度": 34.48901258, "経度": 135.4882479, "ホームページURL": null, "No": 78, "避難所種別（風水害）": "有", "避難所種別（地震）": "有" }, "geometry": { "type": "Point", "coordinates": [ 135.4882479, 34.48901258 ] } },
{ "type": "Feature", "properties": { "施設名": "竹城台東小学校", "郵便番号": "590-0105", "都道府県名": "大阪府", "市名": "堺市", "区名": "南区", "住所": "大阪府堺市南区竹城台1丁10番1号", "電話番号": "072-235-0070", "FAX番号": null, "緯度": 34.50318682, "経度": 135.5107685, "ホームページURL": null, "No": 79, "避難所種別（風水害）": "有", "避難所種別（地震）": "有" }, "geometry": { "type": "Point", "coordinates": [ 135.510768500000012, 34.50318682 ] } },
{ "type": "Feature", "properties": { "施設名": "原山ひかり小学校", "郵便番号": "590-0132", "都道府県名": "大阪府", "市名": "堺市", "区名": "南区", "住所": "大阪府堺市南区原山台4丁3番1号", "電話番号": "072-293-5028", "FAX番号": null, "緯度": 34.48024891, "経度": 135.4945722, "ホームページURL": null, "No": 80, "避難所種別（風水害）": "有", "避難所種別（地震）": "有" }, "geometry": { "type": "Point", "coordinates": [ 135.4945722, 34.48024891 ] } },
{ "type": "Feature", "properties": { "施設名": "庭代台小学校", "郵便番号": "590-0133", "都道府県名": "大阪府", "市名": "堺市", "区名": "南区", "住所": "大阪府堺市南区庭代台3丁12番1号", "電話番号": "072-298-3033", "FAX番号": null, "緯度": 34.47396979, "経度": 135.5000749, "ホームページURL": null, "No": 81, "避難所種別（風水害）": "有", "避難所種別（地震）": "有" }, "geometry": { "type": "Point", "coordinates": [ 135.500074899999987, 34.47396979 ] } },
{ "type": "Feature", "properties": { "施設名": "赤坂台小学校", "郵便番号": "590-0144", "都道府県名": "大阪府", "市名": "堺市", "区名": "南区", "住所": "大阪府堺市南区赤坂台2丁2番1号", "電話番号": "072-298-3030", "FAX番号": null, "緯度": 34.48672571, "経度": 135.4761982, "ホームページURL": null, "No": 82, "避難所種別（風水害）": "有", "避難所種別（地震）": "有" }, "geometry": { "type": "Point", "coordinates": [ 135.4761982, 34.48672571 ] } },
{ "type": "Feature", "properties": { "施設名": "城山台小学校", "郵便番号": "590-0137", "都道府県名": "大阪府", "市名": "堺市", "区名": "南区", "住所": " 大阪府堺市南区城山台1丁20番1号", "電話番号": "072-299-6571", "FAX番号": null, "緯度": 34.46866325, "経度": 135.4878604, "ホームページURL": null, "No": 83, "避難所種別（風水害）": "有", "避難所種別（地震）": "有" }, "geometry": { "type": "Point", "coordinates": [ 135.487860399999988, 34.46866325 ] } },
{ "type": "Feature", "properties": { "施設名": "御池台小学校", "郵便番号": "590-0134", "都道府県名": "大阪府", "市名": "堺市", "区名": "南区", "住所": "大阪府堺市 南区御池台2丁3番1号", "電話番号": "072-298-7500", "FAX番号": null, "緯度": 34.46543746, "経度": 135.5035762, "ホームページURL": null, "No": 84, "避難所種別（風水害）": "有", "避難所種別（地震）": "有" }, "geometry": { "type": "Point", "coordinates": [ 135.5035762, 34.46543746 ] } },
{ "type": "Feature", "properties": { "施設名": "新檜尾台小学校", "郵便番号": "590-0143", "都道府県名": "大阪府", "市名": "堺市", "区名": "南区", "住所": "大阪府堺市 南区新檜尾台3丁7番1号", "電話番号": "072-298-7300", "FAX番号": null, "緯度": 34.48020142, "経度": 135.4768595, "ホームページURL": null, "No": 85, "避難所種別（風水害）": "有", "避難所種別（地震）": "有" }, "geometry": { "type": "Point", "coordinates": [ 135.476859499999989, 34.48020142 ] } },
{ "type": "Feature", "properties": { "施設名": "大阪健康福祉短期大学 堺・泉ヶ丘キャンパス", "郵便番号": "590-0117", "都道府県名": "大阪府", "市名": "堺市", "区名": "南区", "住所": "大阪府堺市 南区高倉台1丁2番1号", "電話番号": "072-292-6625", "FAX番号": null, "緯度": 34.49574181, "経度": 135.5192426, "ホームページURL": null, "No": 86, "避難所種別（風水害）": "有", "避難所種別（地震）": "有" }, "geometry": { "type": "Point", "coordinates": [ 135.519242600000013, 34.49574181 ] } },
{ "type": "Feature", "properties": { "施設名": "はるみ小学校", "郵便番号": "590-0113", "都道府県名": "大阪府", "市名": "堺市", "区名": "南区", "住所": "大阪府堺市 南区晴美台3丁3番1号", "電話番号": "072-290-1112", "FAX番号": null, "緯度": 34.49612665, "経度": 135.535898, "ホームページURL": null, "No": 87, "避難所種別（風水害）": "有", "避難所種別（地震）": "有" }, "geometry": { "type": "Point", "coordinates": [ 135.535898, 34.49612665 ] } },
{ "type": "Feature", "properties": { "施設名": "黒山小学校", "郵便番号": "587-0003", "都道府県名": "大阪府", "市名": "堺市", "区名": "美原区", "住所": "大阪府堺市美原区阿弥93番地", "電話番号": "072-361-0602", "FAX番号": null, "緯度": 34.53492145, "経度": 135.5566316, "ホームページURL": null, "No": 88, "避難所種別（風水害）": "有", "避難所種別（地震）": "有" }, "geometry": { "type": "Point", "coordinates": [ 135.5566316, 34.53492145 ] } },
{ "type": "Feature", "properties": { "施設名": "平尾小学校", "郵便番号": "587-0022", "都道府県名": "大阪府", "市名": "堺市", "区名": "美原区", "住所": "大阪府堺市美原区平尾360番地", "電話番号": "072-361-0029", "FAX番号": null, "緯度": 34.5328056, "経度": 135.5665674, "ホームページURL": null, "No": 89, "避難所種別（風水害）": "有", "避難所種別（地震）": "有" }, "geometry": { "type": "Point", "coordinates": [ 135.5665674, 34.5328056 ] } },
{ "type": "Feature", "properties": { "施設名": "美原北小学校", "郵便番号": "587-0001", "都道府県名": "大阪府", "市名": "堺市", "区名": "美原区", "住所": "大阪府堺市美原区大保19番地", "電話番号": "072-361-0002", "FAX番号": null, "緯度": 34.54942108, "経度": 135.5608296, "ホームページURL": null, "No": 90, "避難所種別（風水害）": "有", "避難所種別（地震）": "有" }, "geometry": { "type": "Point", "coordinates": [ 135.5608296, 34.54942108 ] } },
{ "type": "Feature", "properties": { "施設名": "八上小学校", "郵便番号": "587-0063", "都道府県名": "大阪府", "市名": "堺市", "区名": "美原区", "住所": "大阪府堺市 美原区大饗117番地1", "電話番号": "072-361-0810", "FAX番号": null, "緯度": 34.54363424, "経度": 135.5452874, "ホームページURL": null, "No": 91, "避難所種別（風水害）": "有", "避難所種別（地震）": "有" }, "geometry": { "type": "Point", "coordinates": [ 135.5452874, 34.54363424 ] } },
{ "type": "Feature", "properties": { "施設名": "美原西小学校", "郵便番号": "587-0062", "都道府県名": "大阪府", "市名": "堺市", "区名": "美原区", "住所": "大阪府堺市 美原区太井548番地", "電話番号": "072-362-4891", "FAX番号": null, "緯度": 34.53825347, "経度": 135.5531802, "ホームページURL": null, "No": 92, "避難所種別（風水害）": "有", "避難所種別（地震）": "有" }, "geometry": { "type": "Point", "coordinates": [ 135.553180200000014, 34.53825347 ] } },
{ "type": "Feature", "properties": { "施設名": "さつき野小学校", "郵便番号": "587-0032", "都道府県名": "大阪府", "市名": "堺市", "区名": "美原区", "住所": "大阪府堺市美原区さつき野東1丁目6番1号", "電話番号": "072-362-4689", "FAX番号": null, "緯度": 34.53165097, "経度": 135.5818898, "ホームページURL": null, "No": 93, "避難所種別（風水害）": "有", "避難所種別（地震）": "有" }, "geometry": { "type": "Point", "coordinates": [ 135.5818898, 34.53165097 ] } },
{ "type": "Feature", "properties": { "施設名": "月州中学校", "郵便番号": "590-0984", "都道府県名": "大阪府", "市名": "堺市", "区名": "堺区", "住所": "大阪府堺市堺区神南辺町1丁1番地", "電話番号": "072-238-0968", "FAX番号": null, "緯度": 34.58474233, "経度": 135.4746574, "ホームページURL": null, "No": 94, "避難所種別（風水害）": "有", "避難所種別（地震）": "有" }, "geometry": { "type": "Point", "coordinates": [ 135.474657400000012, 34.58474233 ] } },
{ "type": "Feature", "properties": { "施設名": "殿馬場中学校", "郵便番号": "590-0944", "都道府県名": "大阪府", "市名": "堺市", "区名": "堺区", "住所": "大阪府堺市堺区櫛屋町東3丁2番1号", "電話番号": "072-238-8101", "FAX番号": null, "緯度": 34.57876759, "経度": 135.4794146, "ホームページURL": null, "No": 95, "避難所種別（風水害）": "有", "避難所種別（地震）": "有" }, "geometry": { "type": "Point", "coordinates": [ 135.479414600000013, 34.57876759 ] } },
{ "type": "Feature", "properties": { "施設名": "三国丘中学校", "郵便番号": "590-0026", "都道府県名": "大阪府", "市名": "堺市", "区名": "堺区", "住所": "大阪府堺市堺区向陵西町3丁6番15号", "電話番号": "072-221-8511", "FAX番号": null, "緯度": 34.5704171, "経度": 135.4938528, "ホームページURL": null, "No": 96, "避難所種別（風水害）": "有", "避難所種別（地震）": "有" }, "geometry": { "type": "Point", "coordinates": [ 135.493852800000013, 34.5704171 ] } },
{ "type": "Feature", "properties": { "施設名": "長尾中学校", "郵便番号": "591-8025", "都道府県名": "大阪府", "市名": "堺市", "区名": "北区", "住所": "大阪府堺市 北区長曽根町1179番地の5", "電話番号": "072-252-0347", "FAX番号": null, "緯度": 34.57350077, "経度": 135.5027386, "ホームページURL": null, "No": 97, "避難所種別（風水害）": "有", "避難所種別（地震）": "有" }, "geometry": { "type": "Point", "coordinates": [ 135.502738599999986, 34.57350077 ] } },
{ "type": "Feature", "properties": { "施設名": "金岡南中学校", "郵便番号": "591-8022", "都道府県名": "大阪府", "市名": "堺市", "区名": "北区", "住所": "大阪府堺市北区金岡町2469番地", "電話番号": "072-258-0233", "FAX番号": null, "緯度": 34.55573612, "経度": 135.5219027, "ホームページURL": null, "No": 98, "避難所種別（風水害）": "有", "避難所種別（地震）": "有" }, "geometry": { "type": "Point", "coordinates": [ 135.5219027, 34.55573612 ] } },
{ "type": "Feature", "properties": { "施設名": "八下中学校", "郵便番号": "591-8012", "都道府県名": "大阪府", "市名": "堺市", "区名": "北区", "住所": "大阪府堺市 北区中村町977番地の20", "電話番号": "072-252-0412", "FAX番号": null, "緯度": 34.56021232, "経度": 135.5324038, "ホームページURL": null, "No": 99, "避難所種別（風水害）": "無", "避難所種別（地震）": "有" }, "geometry": { "type": "Point", "coordinates": [ 135.5324038, 34.56021232 ] } },
{ "type": "Feature", "properties": { "施設名": "大浜中学校", "郵便番号": "590-0976", "都道府県名": "大阪府", "市名": "堺市", "区名": "堺区", "住所": "大阪府堺市堺区大浜南町2丁4番1号", "電話番号": "072-238-1988", "FAX番号": null, "緯度": 34.57401084, "経度": 135.4614717, "ホームページURL": null, "No": 100, "避難所種別（風水害）": "有", "避難所種別（地震）": "有" }, "geometry": { "type": "Point", "coordinates": [ 135.4614717, 34.57401084 ] } },
{ "type": "Feature", "properties": { "施設名": "浜寺中学校", "郵便番号": "592-8342", "都道府県名": "大阪府", "市名": "堺市", "区名": "西区", "住所": "大阪府堺市西区浜寺船尾町西5丁60番地", "電話番号": "072-261-2205", "FAX番号": null, "緯度": 34.5433461, "経度": 135.4586793, "ホームページURL": null, "No": 101, "避難所種別（風水害）": "有", "避難所種別（地震）": "有" }, "geometry": { "type": "Point", "coordinates": [ 135.4586793, 34.5433461 ] } },
{ "type": "Feature", "properties": { "施設名": "鳳中学校", "郵便番号": "593-8326", "都道府県名": "大阪府", "市名": "堺市", "区名": "西区", "住所": "大阪府堺市西区鳳西町1丁159番地の1", "電話番号": "072-265-1441", "FAX番号": null, "緯度": 34.52837132, "経度": 135.4544128, "ホームページURL": null, "No": 102, "避難所種別（風水害）": "有", "避難所種別（地震）": "有" }, "geometry": { "type": "Point", "coordinates": [ 135.4544128, 34.52837132 ] } },
{ "type": "Feature", "properties": { "施設名": "泉ヶ丘東中学校", "郵便番号": "599-8242", "都道府県名": "大阪府", "市名": "堺市", "区名": "中区", "住所": "大阪府堺市中区陶器北184番地", "電話番号": "072-236-2421", "FAX番号": null, "緯度": 34.51828695, "経度": 135.5156488, "ホームページURL": null, "No": 103, "避難所種別（風水害）": "有", "避難所種別（地震）": "有" }, "geometry": { "type": "Point", "coordinates": [ 135.5156488, 34.51828695 ] } },
{ "type": "Feature", "properties": { "施設名": "福泉中学校", "郵便番号": "593-8316", "都道府県名": "大阪府", "市名": "堺市", "区名": "西区", "住所": "大阪府堺市西区山田2丁55番地", "電話番号": "072-271-0267", "FAX番号": null, "緯度": 34.50876247, "経度": 135.4644728, "ホームページURL": null, "No": 104, "避難所種別（風水害）": "有", "避難所種別（地震）": "有" }, "geometry": { "type": "Point", "coordinates": [ 135.46447280000001, 34.50876247 ] } },
{ "type": "Feature", "properties": { "施設名": "関西大学堺キャンパス", "郵便番号": "590-0011", "都道府県名": "大阪府", "市名": "堺市", "区名": "堺区", "住所": "大阪府堺市堺区香ヶ丘町1丁11番1号", "電話番号": "072-229-5149", "FAX番号": null, "緯度": 34.58942331, "経度": 135.4921896, "ホームページURL": null, "No": 105, "避難所種別（風水害）": "有", "避難所種別（地震）": "有" }, "geometry": { "type": "Point", "coordinates": [ 135.492189599999989, 34.58942331 ] } },
{ "type": "Feature", "properties": { "施設名": "市立堺高校", "郵便番号": "590-0025", "都道府県名": "大阪府", "市名": "堺市", "区名": "堺区", "住所": "大阪府堺市堺区向陵東町1丁10番1号", "電話番号": "072-240-0840", "FAX番号": null, "緯度": 34.56413537, "経度": 135.4971404, "ホームページURL": null, "No": 106, "避難所種別（風水害）": "有", "避難所種別（地震）": "有" }, "geometry": { "type": "Point", "coordinates": [ 135.4971404, 34.56413537 ] } },
{ "type": "Feature", "properties": { "施設名": "東文化会館", "郵便番号": null, "都道府県名": "大阪府", "市名": "堺市", "区名": "東区", "住所": "大阪府堺市東区北野田1084-136", "電話番号": "072-230-0134", "FAX番号": null, "緯度": 34.5232406, "経度": 135.5416212, "ホームページURL": null, "No": 107, "避難所種別（風水害）": "有", "避難所種別（地震）": "有" }, "geometry": { "type": "Point", "coordinates": [ 135.5416212, 34.5232406 ] } },
{ "type": "Feature", "properties": { "施設名": "みはら大地幼稚園", "郵便番号": "587-0041", "都道府県名": "大阪府", "市名": "堺市", "区名": "美原区", "住所": "大阪府堺市美原区菅生587番地", "電話番号": "072-361-8772", "FAX番号": null, "緯度": 34.52311936, "経度": 135.5706042, "ホームページURL": null, "No": 108, "避難所種別（風水害）": "有", "避難所種別（地震）": "有" }, "geometry": { "type": "Point", "coordinates": [ 135.5706042, 34.52311936 ] } },
{ "type": "Feature", "properties": { "施設名": "東百舌鳥中学校", "郵便番号": "599-8232", "都道府県名": "大阪府", "市名": "堺市", "区名": "中区", "住所": "大阪府堺市中区新家町260番地", "電話番号": "072-236-5441", "FAX番号": null, "緯度": 34.54066259, "経度": 135.5107246, "ホームページURL": null, "No": 109, "避難所種別（風水害）": "無", "避難所種別（地震）": "有" }, "geometry": { "type": "Point", "coordinates": [ 135.5107246, 34.54066259 ] } },
{ "type": "Feature", "properties": { "施設名": "八田荘中学校", "郵便番号": "599-8262", "都道府県名": "大阪府", "市名": "堺市", "区名": "中区", "住所": "大阪府堺市中区八田北町580番地の11", "電話番号": "072-270-0601", "FAX番号": null, "緯度": 34.52627941, "経度": 135.4809688, "ホームページURL": null, "No": 110, "避難所種別（風水害）": "無", "避難所種別（地震）": "有" }, "geometry": { "type": "Point", "coordinates": [ 135.4809688, 34.52627941 ] } },
{ "type": "Feature", "properties": { "施設名": "深井中学校", "郵便番号": "599-8236", "都道府県名": "大阪府", "市名": "堺市", "区名": "中区", "住所": "大阪府堺市中区深井沢町2470番地の1", "電話番号": "072-270-0067", "FAX番号": null, "緯度": 34.52770532, "経度": 135.5013343, "ホームページURL": null, "No": 111, "避難所種別（風水害）": "無", "避難所種別（地震）": "有" }, "geometry": { "type": "Point", "coordinates": [ 135.5013343, 34.52770532 ] } },
{ "type": "Feature", "properties": { "施設名": "平井中学校", "郵便番号": "599-8251", "都道府県名": "大阪府", "市名": "堺市", "区名": "中区", "住所": "大阪府堺市中区平井346番地", "電話番号": "072-277-9015", "FAX番号": null, "緯度": 34.51751329, "経度": 135.4979114, "ホームページURL": null, "No": 112, "避難所種別（風水害）": "無", "避難所種別（地震）": "有" }, "geometry": { "type": "Point", "coordinates": [ 135.4979114, 34.51751329 ] } },
{ "type": "Feature", "properties": { "施設名": "深井中央中学校", "郵便番号": "599-8271", "都道府県名": "大阪府", "市名": "堺市", "区名": "中区", "住所": "大阪府堺市中区深井北町220番地の1", "電話番号": "072-278-7681", "FAX番号": null, "緯度": 34.53970523, "経度": 135.4953454, "ホームページURL": null, "No": 113, "避難所種別（風水害）": "無", "避難所種別（地震）": "有" }, "geometry": { "type": "Point", "coordinates": [ 135.4953454, 34.53970523 ] } },
{ "type": "Feature", "properties": { "施設名": "浜寺南中学校", "郵便番号": "592-8344", "都道府県名": "大阪府", "市名": "堺市", "区名": "西区", "住所": "大阪府堺市 西区浜寺南町1丁55番地", "電話番号": "072-262-6225", "FAX番号": null, "緯度": 34.53623315, "経度": 135.4492492, "ホームページURL": null, "No": 114, "避難所種別（風水害）": "有", "避難所種別（地震）": "有" }, "geometry": { "type": "Point", "coordinates": [ 135.4492492, 34.53623315 ] } },
{ "type": "Feature", "properties": { "施設名": "浅香山中学校", "郵便番号": "590-0018", "都道府県名": "大阪府", "市名": "堺市", "区名": "堺区", "住所": " 大阪府堺市堺区今池町5丁3番8号", "電話番号": "072-233-3586", "FAX番号": null, "緯度": 34.58463377, "経度": 135.4939341, "ホームページURL": null, "No": 115, "避難所種別（風水害）": "無", "避難所種別（地震）": "有" }, "geometry": { "type": "Point", "coordinates": [ 135.4939341, 34.58463377 ] } },
{ "type": "Feature", "properties": { "施設名": "陵西中学校", "郵便番号": "590-0821", "都道府県名": "大阪府", "市名": "堺市", "区名": "堺区", "住所": " 大阪府堺市堺区大仙西町2丁79番地", "電話番号": "072-244-4086", "FAX番号": null, "緯度": 34.56604514, "経度": 135.469432, "ホームページURL": null, "No": 116, "避難所種別（風水害）": "無", "避難所種別（地震）": "有" }, "geometry": { "type": "Point", "coordinates": [ 135.469432, 34.56604514 ] } },
{ "type": "Feature", "properties": { "施設名": "旭中学校", "郵便番号": "590-0801", "都道府県名": "大阪府", "市名": "堺市", "区名": "堺区", "住所": "大阪府堺市 堺区大仙中町11番1号", "電話番号": "072-241-1827", "FAX番号": null, "緯度": 34.56199567, "経度": 135.4783269, "ホームページURL": null, "No": 117, "避難所種別（風水害）": "無", "避難所種別（地震）": "有" }, "geometry": { "type": "Point", "coordinates": [ 135.478326900000013, 34.56199567 ] } },
{ "type": "Feature", "properties": { "施設名": "日置荘中学校", "郵便番号": "599-8111", "都道府県名": "大阪府", "市名": "堺市", "区名": "東区", "住所": "大阪府堺市 東区日置荘北町3丁11番28号", "電話番号": "072-285-0460", "FAX番号": null, "緯度": 34.54112845, "経度": 135.5356858, "ホームページURL": null, "No": 118, "避難所種別（風水害）": "無", "避難所種別（地震）": "有" }, "geometry": { "type": "Point", "coordinates": [ 135.53568580000001, 34.54112845 ] } },
{ "type": "Feature", "properties": { "施設名": "南八下中学校", "郵便番号": "599-8103", "都道府県名": "大阪府", "市名": "堺市", "区名": "東区", "住所": " 大阪府堺市東区菩提町2丁58番地", "電話番号": "072-286-5571", "FAX番号": null, "緯度": 34.55056564, "経度": 135.5330511, "ホームページURL": null, "No": 119, "避難所種別（風水害）": "無", "避難所種別（地震）": "有" }, "geometry": { "type": "Point", "coordinates": [ 135.5330511, 34.55056564 ] } },
{ "type": "Feature", "properties": { "施設名": "登美丘中学校", "郵便番号": "599-8121", "都道府県名": "大阪府", "市名": "堺市", "区名": "東区", "住所": " 大阪府堺市東区高松408番地", "電話番号": "072-236-2426", "FAX番号": null, "緯度": 34.5264664, "経度": 135.5313758, "ホームページURL": null, "No": 120, "避難所種別（風水害）": "無", "避難所種別（地震）": "有" }, "geometry": { "type": "Point", "coordinates": [ 135.5313758, 34.5264664 ] } },
{ "type": "Feature", "properties": { "施設名": "野田中学校", "郵便番号": "599-8124", "都道府県名": "大阪府", "市名": "堺市", "区名": "東区", "住所": " 大阪府堺市東区南野田101番地の1", "電話番号": "072-235-3727", "FAX番号": null, "緯度": 34.5216124, "経度": 135.5505521, "ホームページURL": null, "No": 121, "避難所種別（風水害）": "無", "避難所種別（地震）": "有" }, "geometry": { "type": "Point", "coordinates": [ 135.5505521, 34.5216124 ] } },
{ "type": "Feature", "properties": { "施設名": "上野芝中学校", "郵便番号": "593-8303", "都道府県名": "大阪府", "市名": "堺市", "区名": "西区", "住所": " 大阪府堺市西区上野芝向ヶ丘町5丁25番1号", "電話番号": "072-278-0540", "FAX番号": null, "緯度": 34.54137057, "経度": 135.4809942, "ホームページURL": null, "No": 122, "避難所種別（風水害）": "無", "避難所種別（地震）": "有" }, "geometry": { "type": "Point", "coordinates": [ 135.4809942, 34.54137057 ] } },
{ "type": "Feature", "properties": { "施設名": "津久野中学校", "郵便番号": "593-8308", "都道府県名": "大阪府", "市名": "堺市", "区名": "西区", "住所": "大阪府堺市西区神野町2丁16番1号", "電話番号": "072-274-0215", "FAX番号": null, "緯度": 34.54179411, "経度": 135.4748502, "ホームページURL": null, "No": 123, "避難所種別（風水害）": "無", "避難所種別（地震）": "有" }, "geometry": { "type": "Point", "coordinates": [ 135.4748502, 34.54179411 ] } },
{ "type": "Feature", "properties": { "施設名": "中百舌鳥中学校", "郵便番号": "591-8023", "都道府県名": "大阪府", "市名": "堺市", "区名": "北区", "住所": "大阪府堺市 北区中百舌鳥町6丁1034番地の11", "電話番号": "072-257-4535", "FAX番号": null, "緯度": 34.54900336, "経度": 135.5096264, "ホームページURL": null, "No": 124, "避難所種別（風水害）": "無", "避難所種別（地震）": "有" }, "geometry": { "type": "Point", "coordinates": [ 135.5096264, 34.54900336 ] } },
{ "type": "Feature", "properties": { "施設名": "金岡北中学校", "郵便番号": "591-8021", "都道府県名": "大阪府", "市名": "堺市", "区名": "北区", "住所": "大阪府堺市北区新金岡町1丁5番1号", "電話番号": "072-252-0378", "FAX番号": null, "緯度": 34.57039057, "経度": 135.5119087, "ホームページURL": null, "No": 125, "避難所種別（風水害）": "無", "避難所種別（地震）": "有" }, "geometry": { "type": "Point", "coordinates": [ 135.5119087, 34.57039057 ] } },
{ "type": "Feature", "properties": { "施設名": "五箇荘中学校", "郵便番号": "591-8005", "都道府県名": "大阪府", "市名": "堺市", "区名": "北区", "住所": "大阪府堺市 北区新堀町1丁85番地の2", "電話番号": "072-254-0031", "FAX番号": null, "緯度": 34.57717041, "経度": 135.5096718, "ホームページURL": null, "No": 126, "避難所種別（風水害）": "無", "避難所種別（地震）": "有" }, "geometry": { "type": "Point", "coordinates": [ 135.5096718, 34.57717041 ] } },
{ "type": "Feature", "properties": { "施設名": "陵南中学校", "郵便番号": "591-8033", "都道府県名": "大阪府", "市名": "堺市", "区名": "北区", "住所": "大阪府堺市北区百舌鳥西之町1丁75番地", "電話番号": "072-252-1801", "FAX番号": null, "緯度": 34.54999967, "経度": 135.4915512, "ホームページURL": null, "No": 127, "避難所種別（風水害）": "無", "避難所種別（地震）": "有" }, "geometry": { "type": "Point", "coordinates": [ 135.4915512, 34.54999967 ] } },
{ "type": "Feature", "properties": { "施設名": "福泉南中学校", "郵便番号": "590-0141", "都道府県名": "大阪府", "市名": "堺市", "区名": "南区", "住所": "大阪府堺市南区桃山台3丁7番1号", "電話番号": "072-298-0001", "FAX番号": null, "緯度": 34.49709584, "経度": 135.4817692, "ホームページURL": null, "No": 128, "避難所種別（風水害）": "無", "避難所種別（地震）": "有" }, "geometry": { "type": "Point", "coordinates": [ 135.4817692, 34.49709584 ] } },
{ "type": "Feature", "properties": { "施設名": "宮山台中学校", "郵便番号": "590-0101", "都道府県名": "大阪府", "市名": "堺市", "区名": "南区", "住所": "大阪府堺市南区宮山台1丁1番1号", "電話番号": "072-297-2233", "FAX番号": null, "緯度": 34.49985118, "経度": 135.5036753, "ホームページURL": null, "No": 129, "避難所種別（風水害）": "無", "避難所種別（地震）": "有" }, "geometry": { "type": "Point", "coordinates": [ 135.5036753, 34.49985118 ] } },
{ "type": "Feature", "properties": { "施設名": "若松台中学校", "郵便番号": "590-0116", "都道府県名": "大阪府", "市名": "堺市", "区名": "南区", "住所": "大阪府堺市南区若松台3丁34番1号", "電話番号": "072-297-0129", "FAX番号": null, "緯度": 34.48684081, "経度": 135.512957, "ホームページURL": null, "No": 130, "避難所種別（風水害）": "無", "避難所種別（地震）": "有" }, "geometry": { "type": "Point", "coordinates": [ 135.512957, 34.48684081 ] } },
{ "type": "Feature", "properties": { "施設名": "三原台中学校", "郵便番号": "590-0111", "都道府県名": "大阪府", "市名": "堺市", "区名": "南区", "住所": "大阪府堺市南区三原台1丁12番1号", "電話番号": "072-291-0395", "FAX番号": null, "緯度": 34.49971268, "経度": 135.5230075, "ホームページURL": null, "No": 131, "避難所種別（風水害）": "無", "避難所種別（地震）": "有" }, "geometry": { "type": "Point", "coordinates": [ 135.5230075, 34.49971268 ] } },
{ "type": "Feature", "properties": { "施設名": "晴美台中学校", "郵便番号": "590-0113", "都道府県名": "大阪府", "市名": "堺市", "区名": "南区", "住所": "大阪府堺市 南区晴美台3丁8番1号", "電話番号": "072-291-5300", "FAX番号": null, "緯度": 34.48649671, "経度": 135.5281577, "ホームページURL": null, "No": 132, "避難所種別（風水害）": "無", "避難所種別（地震）": "有" }, "geometry": { "type": "Point", "coordinates": [ 135.5281577, 34.48649671 ] } },
{ "type": "Feature", "properties": { "施設名": "原山台中学校", "郵便番号": "590-0132", "都道府県名": "大阪府", "市名": "堺市", "区名": "南区", "住所": "大阪府堺市南区原山台4丁2番1号", "電話番号": "072-299-5135", "FAX番号": null, "緯度": 34.48215771, "経度": 135.4945304, "ホームページURL": null, "No": 133, "避難所種別（風水害）": "無", "避難所種別（地震）": "有" }, "geometry": { "type": "Point", "coordinates": [ 135.4945304, 34.48215771 ] } },
{ "type": "Feature", "properties": { "施設名": "庭代台中学校", "郵便番号": "590-0133", "都道府県名": "大阪府", "市名": "堺市", "区名": "南区", "住所": "大阪府堺市南区庭代台2丁19番1号", "電話番号": "072-298-3043", "FAX番号": null, "緯度": 34.46818237, "経度": 135.500234, "ホームページURL": null, "No": 134, "避難所種別（風水害）": "無", "避難所種別（地震）": "有" }, "geometry": { "type": "Point", "coordinates": [ 135.500234, 34.46818237 ] } },
{ "type": "Feature", "properties": { "施設名": "赤坂台中学校", "郵便番号": "590-0144", "都道府県名": "大阪府", "市名": "堺市", "区名": "南区", "住所": "大阪府堺市南区赤坂台2丁1番1号", "電話番号": "072-298-3040", "FAX番号": null, "緯度": 34.4842358, "経度": 135.4777159, "ホームページURL": null, "No": 135, "避難所種別（風水害）": "無", "避難所種別（地震）": "有" }, "geometry": { "type": "Point", "coordinates": [ 135.4777159, 34.4842358 ] } },
{ "type": "Feature", "properties": { "施設名": "美木多中学校", "郵便番号": "590-0138", "都道府県名": "大阪府", "市名": "堺市", "区名": "南区", "住所": "大阪府堺市南区鴨谷台1丁47番1号", "電話番号": "072-299-3700", "FAX番号": null, "緯度": 34.47252631, "経度": 135.4834979, "ホームページURL": null, "No": 136, "避難所種別（風水害）": "無", "避難所種別（地震）": "有" }, "geometry": { "type": "Point", "coordinates": [ 135.4834979, 34.47252631 ] } },
{ "type": "Feature", "properties": { "施設名": "美原中学校", "郵便番号": "587-0021", "都道府県名": "大阪府", "市名": "堺市", "区名": "美原区", "住所": "大阪府堺市美原区小平尾390番地", "電話番号": "072-361-0271", "FAX番号": null, "緯度": 34.53900273, "経度": 135.5631924, "ホームページURL": null, "No": 137, "避難所種別（風水害）": "無", "避難所種別（地震）": "有" }, "geometry": { "type": "Point", "coordinates": [ 135.5631924, 34.53900273 ] } },
{ "type": "Feature", "properties": { "施設名": "美原西中学校", "郵便番号": "587-0063", "都道府県名": "大阪府", "市名": "堺市", "区名": "美原区", "住所": "大阪府堺市美原区大饗102番地2", "電話番号": "072-361-6500", "FAX番号": null, "緯度": 34.54301596, "経度": 135.5471725, "ホームページURL": null, "No": 138, "避難所種別（風水害）": "無", "避難所種別（地震）": "有" }, "geometry": { "type": "Point", "coordinates": [ 135.547172499999988, 34.54301596 ] } },
{ "type": "Feature", "properties": { "施設名": "さつき野中学校", "郵便番号": "587-0031", "都道府県名": "大阪府", "市名": "堺市", "区名": "美原区", "住所": "大阪府堺市美原区さつき野西2丁目6番1号", "電話番号": "072-362-4707", "FAX番号": null, "緯度": 34.53226887, "経度": 135.5801883, "ホームページURL": null, "No": 139, "避難所種別（風水害）": "無", "避難所種別（地震）": "有" }, "geometry": { "type": "Point", "coordinates": [ 135.5801883, 34.53226887 ] } },
{ "type": "Feature", "properties": { "施設名": "府立登美丘高校", "郵便番号": "599-8125", "都道府県名": "大阪府", "市名": "堺市", "区名": "東区", "住所": "大阪府堺市東区西野51番地", "電話番号": "072-236-5041", "FAX番号": null, "緯度": 34.51813431, "経度": 135.5411017, "ホームページURL": null, "No": 140, "避難所種別（風水害）": "無", "避難所種別（地震）": "有" }, "geometry": { "type": "Point", "coordinates": [ 135.541101700000013, 34.51813431 ] } },
{ "type": "Feature", "properties": { "施設名": "府立泉陽高校", "郵便番号": "590-0943", "都道府県名": "大阪府", "市名": "堺市", "区名": "堺区", "住所": "大阪府堺市堺区車之町東3丁2番1号", "電話番号": "072-233-0588", "FAX番号": null, "緯度": 34.58001448, "経度": 135.4799248, "ホームページURL": null, "No": 141, "避難所種別（風水害）": "無", "避難所種別（地震）": "有" }, "geometry": { "type": "Point", "coordinates": [ 135.4799248, 34.58001448 ] } },
{ "type": "Feature", "properties": { "施設名": "府立三国丘高校", "郵便番号": "590-0023", "都道府県名": "大阪府", "市名": "堺市", "区名": "堺区", "住所": "大阪府堺市堺区南三国ヶ丘町2丁2番36号", "電話番号": "072-233-6005", "FAX番号": null, "緯度": 34.5734603, "経度": 135.4877747, "ホームページURL": null, "No": 142, "避難所種別（風水害）": "無", "避難所種別（地震）": "有" }, "geometry": { "type": "Point", "coordinates": [ 135.487774699999989, 34.5734603 ] } },
{ "type": "Feature", "properties": { "施設名": "府立鳳高校", "郵便番号": "593-8317", "都道府県名": "大阪府", "市名": "堺市", "区名": "西区", "住所": "大阪府堺市西区原田150番地", "電話番号": "072-271-5151", "FAX番号": null, "緯度": 34.51781932, "経度": 135.4588766, "ホームページURL": null, "No": 143, "避難所種別（風水害）": "無", "避難所種別（地震）": "有" }, "geometry": { "type": "Point", "coordinates": [ 135.4588766, 34.51781932 ] } },
{ "type": "Feature", "properties": { "施設名": "府立泉北高校", "郵便番号": "590-0116", "都道府県名": "大阪府", "市名": "堺市", "区名": "南区", "住所": "大阪府堺市南区若松台3丁2番2号", "電話番号": "072-297-1065", "FAX番号": null, "緯度": 34.4902818, "経度": 135.5011832, "ホームページURL": null, "No": 144, "避難所種別（風水害）": "無", "避難所種別（地震）": "有" }, "geometry": { "type": "Point", "coordinates": [ 135.501183200000014, 34.4902818 ] } },
{ "type": "Feature", "properties": { "施設名": "府立堺東高校", "郵便番号": "590-0113", "都道府県名": "大阪府", "市名": "堺市", "区名": "南区", "住所": "大阪府堺市南区晴美台1丁1番2号", "電話番号": "072-291-5510", "FAX番号": null, "緯度": 34.4993013, "経度": 135.5341837, "ホームページURL": null, "No": 145, "避難所種別（風水害）": "無", "避難所種別（地震）": "有" }, "geometry": { "type": "Point", "coordinates": [ 135.5341837, 34.4993013 ] } },
{ "type": "Feature", "properties": { "施設名": "府立金岡高校", "郵便番号": "591-8022", "都道府県名": "大阪府", "市名": "堺市", "区名": "北区", "住所": "大阪府堺市北区金岡町2651番地", "電話番号": "072-257-1431", "FAX番号": null, "緯度": 34.55385593, "経度": 135.5272509, "ホームページURL": null, "No": 146, "避難所種別（風水害）": "無", "避難所種別（地震）": "有" }, "geometry": { "type": "Point", "coordinates": [ 135.527250900000013, 34.55385593 ] } },
{ "type": "Feature", "properties": { "施設名": "府立東百舌鳥高校", "郵便番号": "599-8234", "都道府県名": "大阪府", "市名": "堺市", "区名": "中区", "住所": "大阪府堺市中区土塔町2377-5", "電話番号": "072-235-3781", "FAX番号": null, "緯度": 34.53532667, "経度": 135.5118523, "ホームページURL": null, "No": 147, "避難所種別（風水害）": "無", "避難所種別（地震）": "有" }, "geometry": { "type": "Point", "coordinates": [ 135.511852299999987, 34.53532667 ] } },
{ "type": "Feature", "properties": { "施設名": "府立堺西高校", "郵便番号": "590-0141", "都道府県名": "大阪府", "市名": "堺市", "区名": "南区", "住所": "大阪府堺市南区桃山台4丁16番", "電話番号": "072-298-4410", "FAX番号": null, "緯度": 34.49554794, "経度": 135.4843096, "ホームページURL": null, "No": 148, "避難所種別（風水害）": "無", "避難所種別（地震）": "有" }, "geometry": { "type": "Point", "coordinates": [ 135.484309599999989, 34.49554794 ] } },
{ "type": "Feature", "properties": { "施設名": "府立成美高校", "郵便番号": "590-0137", "都道府県名": "大阪府", "市名": "堺市", "区名": "南区", "住所": "大阪府堺市南区城山台4丁1番1号", "電話番号": "072-299-9000", "FAX番号": null, "緯度": 34.4633122, "経度": 135.4868947, "ホームページURL": null, "No": 149, "避難所種別（風水害）": "無", "避難所種別（地震）": "有" }, "geometry": { "type": "Point", "coordinates": [ 135.4868947, 34.4633122 ] } },
{ "type": "Feature", "properties": { "施設名": "府立福泉高校", "郵便番号": "593-8314", "都道府県名": "大阪府", "市名": "堺市", "区名": "西区", "住所": "大阪府堺市西区太平寺323番地", "電話番号": "072-299-9500", "FAX番号": null, "緯度": 34.50469725, "経度": 135.4801357, "ホームページURL": null, "No": 150, "避難所種別（風水害）": "無", "避難所種別（地震）": "有" }, "geometry": { "type": "Point", "coordinates": [ 135.4801357, 34.50469725 ] } },
{ "type": "Feature", "properties": { "施設名": "府立堺上高校", "郵便番号": "593-8311", "都道府県名": "大阪府", "市名": "堺市", "区名": "西区", "住所": "大阪府堺市西区上61番地", "電話番号": "072-271-0808", "FAX番号": null, "緯度": 34.52392565, "経度": 135.4691523, "ホームページURL": null, "No": 151, "避難所種別（風水害）": "無", "避難所種別（地震）": "有" }, "geometry": { "type": "Point", "coordinates": [ 135.4691523, 34.52392565 ] } },
{ "type": "Feature", "properties": { "施設名": "教育文化センター", "郵便番号": "599-8273", "都道府県名": "大阪府", "市名": "堺市", "区名": "中区", "住所": "大阪府堺市中区深井清水町1426番地", "電話番号": "072-270-8110", "FAX番号": null, "緯度": 34.53389772, "経度": 135.4915882, "ホームページURL": null, "No": 152, "避難所種別（風水害）": "無", "避難所種別（地震）": "有" }, "geometry": { "type": "Point", "coordinates": [ 135.4915882, 34.53389772 ] } },
{ "type": "Feature", "properties": { "施設名": "栂文化会館", "郵便番号": "590-0141", "都道府県名": "大阪府", "市名": "堺市", "区名": "南区", "住所": "大阪府堺市南区桃山台2丁1番2号", "電話番号": "072-296-0015", "FAX番号": null, "緯度": 34.48575824, "経度": 135.4893164, "ホームページURL": null, "No": 153, "避難所種別（風水害）": "無", "避難所種別（地震）": "有" }, "geometry": { "type": "Point", "coordinates": [ 135.4893164, 34.48575824 ] } },
{ "type": "Feature", "properties": { "施設名": "勤労者総合福祉センター←サンスクエア堺", "郵便番号": "590-0014", "都道府県名": "大阪府", "市名": "堺市", "区名": "堺区", "住所": "大阪府堺市堺区田出井町2丁1番", "電話番号": "072-222-3561", "FAX番号": null, "緯度": 34.57860245, "経度": 135.4964469, "ホームページURL": null, "No": 154, "避難所種別（風水害）": "無", "避難所種別（地震）": "有" }, "geometry": { "type": "Point", "coordinates": [ 135.4964469, 34.57860245 ] } },
{ "type": "Feature", "properties": { "施設名": "金岡公園体育館", "郵便番号": "591-8025", "都道府県名": "大阪府", "市名": "堺市", "区名": "北区", "住所": "大阪府堺市 北区長曽根町1179番地の18", "電話番号": "072-254-6601", "FAX番号": null, "緯度": 34.57072976, "経度": 135.5063748, "ホームページURL": null, "No": 155, "避難所種別（風水害）": "無", "避難所種別（地震）": "有" }, "geometry": { "type": "Point", "coordinates": [ 135.5063748, 34.57072976 ] } },
{ "type": "Feature", "properties": { "施設名": "大浜体育館", "郵便番号": "590-0974", "都道府県名": "大阪府", "市名": "堺市", "区名": "堺区", "住所": "大阪府堺市堺区大浜北町5丁7番1号", "電話番号": "072-221-2080", "FAX番号": null, "緯度": 34.58150644, "経度": 135.459218, "ホームページURL": null, "No": 156, "避難所種別（風水害）": "無", "避難所種別（地震）": "有" }, "geometry": { "type": "Point", "coordinates": [ 135.459218, 34.58150644 ] } },
{ "type": "Feature", "properties": { "施設名": "初芝体育館", "郵便番号": "599-8116", "都道府県名": "大阪府", "市名": "堺市", "区名": "東区", "住所": "大阪府堺市東区野尻町221番地の4", "電話番号": "072-285-0006", "FAX番号": null, "緯度": 34.54040843, "経度": 135.5231616, "ホームページURL": null, "No": 157, "避難所種別（風水害）": "無", "避難所種別（地震）": "有" }, "geometry": { "type": "Point", "coordinates": [ 135.5231616, 34.54040843 ] } },
{ "type": "Feature", "properties": { "施設名": "鴨谷体育館", "郵便番号": "590-0138", "都道府県名": "大阪府", "市名": "堺市", "区名": "南区", "住所": "大阪府堺市南区鴨谷台2丁4番1号", "電話番号": "072-296-1717", "FAX番号": null, "緯度": 34.47418547, "経度": 135.478721, "ホームページURL": null, "No": 158, "避難所種別（風水害）": "無", "避難所種別（地震）": "有" }, "geometry": { "type": "Point", "coordinates": [ 135.478721, 34.47418547 ] } },
{ "type": "Feature", "properties": { "施設名": "家原大池体育館", "郵便番号": "593-8304", "都道府県名": "大阪府", "市名": "堺市", "区名": "西区", "住所": "大阪府堺市西区家原寺町1丁18番1号", "電話番号": "072-271-1718", "FAX番号": null, "緯度": 34.53678835, "経度": 135.4725475, "ホームページURL": null, "No": 159, "避難所種別（風水害）": "無", "避難所種別（地震）": "有" }, "geometry": { "type": "Point", "coordinates": [ 135.4725475, 34.53678835 ] } },
{ "type": "Feature", "properties": { "施設名": "原池公園体育館", "郵便番号": "599-8267", "都道府県名": "大阪府", "市名": "堺市", "区名": "中区", "住所": "大阪府堺市中区八田寺町320", "電話番号": "072-278-1004", "FAX番号": null, "緯度": 34.51981323, "経度": 135.4936539, "ホームページURL": null, "No": 160, "避難所種別（風水害）": "無", "避難所種別（地震）": "有" }, "geometry": { "type": "Point", "coordinates": [ 135.4936539, 34.51981323 ] } },
{ "type": "Feature", "properties": { "施設名": "美原体育館", "郵便番号": "587-0012", "都道府県名": "大阪府", "市名": "堺市", "区名": "美原区", "住所": "大阪府堺市美原区多治井878番地1", "電話番号": "072-361-4511", "FAX番号": null, "緯度": 34.54277396, "経度": 135.5670742, "ホームページURL": null, "No": 161, "避難所種別（風水害）": "無", "避難所種別（地震）": "有" }, "geometry": { "type": "Point", "coordinates": [ 135.5670742, 34.54277396 ] } },
{ "type": "Feature", "properties": { "施設名": "泉北高倉小学校", "郵便番号": "590-0117", "都道府県名": "大阪府", "市名": "堺市", "区名": "南区", "住所": "大阪府堺市南区高倉台3丁5-1", "電話番号": "072-293-3800", "FAX番号": null, "緯度": 34.49365, "経度": 135.5257, "ホームページURL": null, "No": 162, "避難所種別（風水害）": "有", "避難所種別（地震）": "有" }, "geometry": { "type": "Point", "coordinates": [ 135.5257, 34.49365 ] } }
]
}
